[
  {
    "id": 1,
    "title": "Multi-Family Garage Sale",
    "description": "Furniture, clothes, and electronics.",
    "location": "123 Main St, Springfield, IL",
    "lat": 39.7817,
    "lng": -89.6501,
    "date": "2025-07-20",
    "itemType": "furniture"
  },
  {
    "id": 2,
    "title": "Yard Sale Extravaganza",
    "description": "Books, toys, and collectibles.",
    "location": "456 Oak Ave, Springfield, IL",
    "lat": 39.7917,
    "lng": -89.6601,
    "date": "2025-07-21",
    "itemType": "collectibles"
  },
  {
    "title": "Test Sale",
    "description": "Test items",
    "location": "62704",
    "date": "2025-07-20",
    "itemType": "furniture",
    "lat": 39.7749308,
    "lng": -89.691611,
    "id": 4
  },
  {
    "title": "City Test Sale",
    "description": "City items",
    "location": "Springfield, IL",
    "date": "2025-07-20",
    "itemType": "electronics",
    "lat": 39.7990175,
    "lng": -89.6439575,
    "id": 5
  },
  {
    "title": "Test Sale 2",
    "description": "More Items",
    "location": "62704",
    "date": "2025-07-20",
    "itemType": "collectibles",
    "lat": 39.7749308,
    "lng": -89.691611,
    "id": 6
  },
  {
    "title": "Sammamish Sale",
    "description": "Test items",
    "location": "98024",
    "date": "2025-07-20",
    "itemType": "furniture",
    "lat": 47.5626693,
    "lng": -121.8738922,
    "id": 7
  },
  {
    "title": "Sammamish Sale",
    "description": "Test items",
    "location": "98024",
    "date": "2025-07-20",
    "itemType": "furniture",
    "lat": 47.5626693,
    "lng": -121.8738922,
    "id": 8
  },
  {
    "title": "Sammamish Test Sale",
    "description": "test",
    "location": "98008",
    "date": "2025-07-15",
    "itemType": "collectibles",
    "lat": 47.6116244,
    "lng": -122.1172925,
    "id": 9
  },
  {
    "title": "Bellevue Sale",
    "description": "Test items",
    "location": "98008",
    "date": "2025-07-20",
    "itemType": "furniture",
    "lat": 47.6116244,
    "lng": -122.1172925,
    "id": 10
  },
  {
    "title": "Bellevue Sale 2",
    "description": "More Items",
    "location": "98808",
    "date": "2025-07-20",
    "itemType": "collectibles",
    "lat": 38.8939168,
    "lng": -77.0426534,
    "id": 11
  },
  {
    "title": "Test 1.2",
    "description": "Teset",
    "location": "98837",
    "date": "2025-07-15",
    "itemType": "collectibles",
    "lat": 47.130363,
    "lng": -119.2747213,
    "id": 12
  },
  {
    "title": "...",
    "description": "...",
    "location": "98837",
    "date": "2025-07-24",
    "itemType": "furniture",
    "lat": 47.130363,
    "lng": -119.2747213,
    "id": 13
  },
  {
    "title": "...",
    "description": "...",
    "location": "98837",
    "date": "2025-07-16",
    "itemType": "electronics",
    "lat": 47.130363,
    "lng": -119.2747213,
    "id": 14
  },
  {
    "title": "111",
    "description": "111",
    "location": "98024",
    "date": "2025-07-09",
    "itemType": "clothing",
    "lat": 47.5626693,
    "lng": -121.8738922,
    "id": 15
  },
  {
    "title": "Test Sale",
    "description": "Test items",
    "location": "98008",
    "date": "2025-07-20",
    "itemType": "furniture",
    "lat": 47.6116244,
    "lng": -122.1172925,
    "id": 16
  },
  {
    "title": "111",
    "description": "111",
    "location": "98837",
    "date": "2025-07-18",
    "itemType": "electronics",
    "lat": 47.130363,
    "lng": -119.2747213,
    "id": 17
  }
]